City_ID,City,Lat,Lng,Max Temp,Humidity,Cloudiness,Wind Speed,Country,Date
0,margaret river,-33.95,115.0667,14.87,67,0,3.63,AU,1746630983
1,punta arenas,-53.15,-70.9167,3.06,75,100,4.63,CL,1746630984
2,port-aux-francais,-49.35,70.2167,4.41,92,100,2.56,TF,1746630986
3,padang,-0.9492,100.3543,26.52,90,56,1.11,ID,1746630988
4,thompson,55.7435,-97.8558,7.09,45,40,5.66,CA,1746630989
5,tangalle,6.024,80.7911,25.91,88,100,5.49,LK,1746630990
6,blackmans bay,-43.0167,147.3167,4.85,83,55,0.45,AU,1746630991
7,ushuaia,-54.8,-68.3,0.81,93,75,2.57,AR,1746630929
8,ilulissat,69.2167,-51.1,-0.99,86,100,4.63,GL,1746630993
9,mananjary,-21.2167,48.3333,22.67,79,100,1.53,MG,1746630994
10,adamstown,-25.066,-130.1015,24.47,77,2,5.97,PN,1746630995
11,dar chioukh,34.8964,3.4854,25.35,22,86,6.84,DZ,1746630996
12,waitangi,-43.9535,-176.5597,14.74,85,92,10.22,NZ,1746630997
13,bilibino,68.0546,166.4372,-15.03,88,34,2.54,RU,1746630998
14,invercargill,-46.4,168.35,14.45,79,100,3.13,NZ,1746630999
15,badger,64.8,-147.5333,3.32,73,75,2.06,US,1746631000
16,saipan,15.1355,145.701,27.58,82,20,5.66,MP,1746631002
17,cabedelo,-6.9811,-34.8339,31.37,61,18,5.28,BR,1746631003
18,edinburgh of the seven seas,-37.0676,-12.3116,15.57,82,34,7.44,SH,1746631004
19,whitehorse,60.7161,-135.0538,0.45,53,22,4.02,CA,1746630805
20,tidjikja,18.5564,-11.4271,39.13,13,23,6.37,MR,1746631006
21,atafu village,-8.5421,-172.5159,28.89,76,77,7.01,TK,1746631007
22,ust-nera,64.5667,143.2,-1.84,93,100,3.0,RU,1746631008
23,lihue,21.9789,-159.3672,22.77,88,100,9.26,US,1746631009
24,athlone,53.4333,-7.95,15.76,63,99,2.65,IE,1746631010
25,changyon,38.2508,125.0961,9.37,72,68,0.96,KP,1746631011
26,haiku-pauwela,20.9219,-156.3051,22.36,79,100,6.69,US,1746631012
27,isafjordur,66.0755,-23.124,10.02,46,20,11.32,IS,1746631013
28,bethel,41.3712,-73.414,20.25,65,0,4.12,US,1746631014
29,illapel,-31.6308,-71.1653,18.4,42,99,1.72,CL,1746631015
30,rikaze,29.25,88.8833,11.32,38,100,2.14,CN,1746631016
31,puerto natales,-51.7236,-72.4875,4.25,75,75,2.06,CL,1746631017
32,kingston,17.997,-76.7936,31.2,66,20,2.57,JM,1746631015
33,salinas,36.6777,-121.6555,13.93,85,100,4.12,US,1746630963
34,olinda,-8.0089,-34.8553,29.85,70,40,4.12,BR,1746631020
35,udachny,66.4167,112.4,-2.59,85,97,2.32,RU,1746631021
36,uturoa,-16.7333,-151.4333,27.0,76,17,4.82,PF,1746631022
37,mizunami,35.3667,137.25,8.11,88,1,1.28,JP,1746631023
38,nouadhibou,20.931,-17.0347,24.99,53,0,8.23,MR,1746631025
39,shimoda,34.6667,138.95,15.0,84,32,3.81,JP,1746631026
40,olonkinbyen,70.9221,-8.7187,-0.18,98,100,8.19,SJ,1746631027
41,grytviken,-54.2811,-36.5092,-0.18,83,100,3.97,GS,1746631028
42,selibaby,15.159,-12.1829,42.62,11,8,3.87,MR,1746631029
43,mata-utu,-13.2816,-176.1745,28.49,79,100,12.44,WF,1746631030
44,puerto ayora,-0.7393,-90.3518,25.86,94,59,1.34,EC,1746631031
45,enewetak,11.3474,162.3373,27.85,76,100,9.03,MH,1746631032
46,crane,31.3974,-102.3501,16.79,56,3,5.54,US,1746631033
47,ancud,-41.8697,-73.8203,10.59,88,100,7.96,CL,1746631034
48,jamaame,0.0697,42.745,27.02,80,99,4.46,SO,1746631035
49,tiksi,71.6872,128.8694,-14.03,98,40,1.85,RU,1746631037
50,qarayeri,40.7886,46.3066,24.49,38,20,1.03,AZ,1746631038
51,sidareja,-7.4846,108.7923,28.24,98,100,1.08,ID,1746631039
52,yeppoon,-23.1333,150.7333,19.99,81,0,5.01,AU,1746631040
53,wailua homesteads,22.0669,-159.378,22.44,94,100,9.26,US,1746631041
54,vadso,70.0744,29.7487,3.09,75,0,7.2,NO,1746631042
55,talnakh,69.4865,88.3972,0.41,96,100,2.81,RU,1746631044
56,cabo san lucas,22.8909,-109.9124,22.17,56,0,2.06,MX,1746631045
57,stephenville,32.2207,-98.2023,18.97,88,75,4.12,US,1746631046
58,kirakira,-10.4544,161.9205,25.84,84,86,0.2,SB,1746631047
59,hamilton,39.1834,-84.5333,21.11,66,0,2.57,US,1746630828
60,harper,4.375,-7.7169,29.16,69,100,3.17,LR,1746630803
61,arraial do cabo,-22.9661,-42.0278,26.92,65,75,6.69,BR,1746631050
62,fort mcmurray,56.7268,-111.381,15.29,39,97,5.06,CA,1746630854
63,hithadhoo,-0.6,73.0833,28.66,76,100,6.43,MV,1746631052
64,san lorenzo,-25.3333,-57.5333,23.52,69,75,5.14,PY,1746631053
65,biankouma,7.7391,-7.6138,33.43,37,100,2.26,CI,1746631054
66,khilok,51.3674,110.4676,2.81,37,5,1.93,RU,1746631056
67,ola,59.5833,151.2833,1.98,92,100,2.7,RU,1746631057
68,iqaluit,63.7506,-68.5145,-9.15,62,75,4.12,CA,1746631058
69,broome,42.2506,-75.833,13.94,95,100,4.63,US,1746631059
70,manturovo,58.3353,44.7619,9.43,66,99,2.82,RU,1746631060
71,la ronge,55.1001,-105.2842,14.14,26,40,6.69,CA,1746631061
72,rio grande,-32.035,-52.0986,24.18,68,100,1.88,BR,1746630904
73,amga,60.8953,131.9608,4.24,56,5,0.56,RU,1746631064
74,port elizabeth,-33.918,25.5701,16.84,92,97,1.34,ZA,1746631065
75,antsiranana,-12.2787,49.2917,26.71,80,32,7.06,MG,1746631066
76,baicheng,45.6167,122.8167,14.33,49,99,5.87,CN,1746631067
77,bandon,51.7469,-8.7425,15.77,68,74,4.08,IE,1746631068
78,belmonte,-15.8631,-38.8828,25.62,89,50,3.19,BR,1746631069
79,albany,42.6001,-73.9662,17.97,73,75,1.34,US,1746630816
80,yellowknife,62.456,-114.3525,5.79,84,100,0.45,CA,1746630825
81,fale old settlement,-9.3852,-171.2468,28.79,77,92,7.58,TK,1746631073
82,sitka,57.0531,-135.33,6.94,70,100,4.63,US,1746631074
83,saint-philippe,-21.3585,55.7679,24.89,89,100,7.48,RE,1746631075
84,sittwe,20.15,92.9,29.29,71,41,3.8,MM,1746631076
85,taltal,-25.4,-70.4833,18.54,70,100,2.1,CL,1746631077
86,georgetown,5.4112,100.3354,29.97,75,20,2.68,MY,1746630822
87,gadzhiyevo,69.2551,33.3362,1.36,100,99,7.66,RU,1746631081
88,papatowai,-46.5619,169.4708,13.72,79,100,2.75,NZ,1746631082
89,sao felix do xingu,-6.6447,-51.995,31.21,53,8,2.08,BR,1746631083
90,urangan,-25.3,152.9,19.44,77,33,5.03,AU,1746631084
91,wuwei,37.9281,102.6414,13.86,46,87,6.1,CN,1746631086
92,kimbe,-5.5502,150.1429,25.12,93,100,0.83,PG,1746631087
93,longyearbyen,78.2186,15.6401,-1.09,64,0,1.54,SJ,1746631088
94,klyuchi,52.2667,79.1667,18.74,53,100,3.32,RU,1746631089
95,sur,22.5667,59.5289,30.48,67,0,3.15,OM,1746631090
96,coelho neto,-4.2567,-43.0128,33.52,41,87,2.51,BR,1746631091
97,thames,-37.1333,175.5333,11.98,92,10,1.63,NZ,1746631092
98,bechar,31.6167,-2.2167,33.18,9,40,7.2,DZ,1746631093
99,borovskoy,53.8,64.15,16.13,65,100,6.45,KZ,1746631094
100,kasane,-17.8167,25.15,27.05,26,0,4.12,BW,1746631095
101,kenai,60.5544,-151.2583,1.03,86,0,2.06,US,1746631096
102,danjiangkou,32.5428,111.5086,25.02,42,100,6.61,CN,1746631097
103,la passe,45.5549,-0.8967,17.19,62,100,3.63,FR,1746631098
104,port hedland,-20.3167,118.5667,22.03,56,12,3.6,AU,1746631099
105,canacona,14.9959,74.0506,29.08,71,30,5.27,IN,1746631101
106,collie,-33.3667,116.15,13.91,72,0,1.84,AU,1746631102
107,bisenda buzurg,25.4167,80.6167,36.69,17,100,4.21,IN,1746631103
108,cururupu,-1.8283,-44.8683,31.91,51,34,2.98,BR,1746631104
109,newman,37.3138,-121.0208,15.02,78,0,0.45,US,1746631105
110,inirida,3.8653,-67.9239,22.23,93,100,0.45,CO,1746631106
111,meadow lake,34.8014,-106.5436,11.03,71,85,0.55,US,1746631107
112,tindouf,27.6711,-8.1474,33.25,16,77,8.23,DZ,1746631108
113,tura,25.5198,90.2201,25.12,61,63,1.56,IN,1746631109
114,bonthe,7.5264,-12.505,30.12,67,53,4.93,SL,1746631110
115,east london,-33.0153,27.9116,20.52,88,100,2.57,ZA,1746631111
116,nuuk,64.1835,-51.7216,-3.66,93,100,6.17,GL,1746631099
117,timbuktu,16.7735,-3.0074,42.3,15,2,2.25,ML,1746631114
118,ta`u,-14.2336,-169.5144,27.88,79,87,12.28,AS,1746631115
119,lebu,-37.6167,-73.65,12.97,80,100,1.73,CL,1746631116
120,hawaiian paradise park,19.5933,-154.9731,19.94,83,40,2.57,US,1746631117
121,nikolayevsk-on-amure,53.1406,140.73,1.83,88,8,1.3,RU,1746631118
122,hotan,37.0997,79.9269,26.98,11,0,4.17,CN,1746631119
123,anadyr,64.75,177.4833,-5.72,86,40,2.0,RU,1746631120
124,menongue,-14.6585,17.691,23.15,44,1,3.4,AO,1746631121
125,saudarkrokur,65.7461,-19.6394,8.27,86,100,1.99,IS,1746631122
126,bredasdorp,-34.5322,20.0403,18.05,68,52,3.2,ZA,1746631123
127,natal,-5.795,-35.2094,32.12,55,75,7.2,BR,1746631118
128,ballina,-28.8667,153.5667,16.46,91,92,3.08,AU,1746630957
129,carnarvon,-24.8667,113.6333,26.87,30,0,4.27,AU,1746631127
130,port mathurin,-19.6833,63.4167,27.03,78,14,8.32,MU,1746631128
131,surab,28.4914,66.2585,25.0,22,17,3.53,PK,1746631129
132,happy valley-goose bay,53.3168,-60.3315,7.17,81,100,10.29,CA,1746630910
133,chibuto,-24.6867,33.5306,24.18,46,0,0.31,MZ,1746631131
134,nagqu,31.5,92.0,4.34,12,76,5.23,CN,1746631132
135,qaqortoq,60.7167,-46.0333,0.35,69,96,4.98,GL,1746631133
136,mariental,-24.6333,17.9667,27.68,16,0,3.26,NA,1746631135
137,jianshui,23.6363,102.8264,24.67,47,78,3.71,CN,1746631136
138,utrik,11.2278,169.8474,26.92,84,100,8.73,MH,1746631137
139,boda,4.3189,17.4695,33.15,39,42,2.31,CF,1746631138
140,vorgashor,67.5833,63.95,-0.15,98,100,6.35,RU,1746631139
141,kruisfontein,-34.0033,24.7314,16.87,79,100,3.76,ZA,1746631141
142,zykovo,55.9519,93.1461,10.36,65,88,2.82,RU,1746631142
143,dawson creek,55.7666,-120.2362,9.8,50,0,4.63,CA,1746631050
144,al qusiyah,27.4402,30.8184,35.39,11,38,5.63,EG,1746631144
145,port lincoln,-34.7333,135.8667,15.04,58,96,4.01,AU,1746631145
146,albertina,-22.2008,-46.6158,24.56,49,1,0.46,BR,1746631146
147,carinhanha,-14.3047,-43.765,31.94,34,0,2.7,BR,1746631147
148,sovetskaya gavan',48.9723,140.2878,4.53,83,99,0.01,RU,1746631148
149,zhangjiajie,29.1294,110.4783,19.97,88,90,1.01,CN,1746630927
150,college,64.8569,-147.8028,2.99,75,75,2.06,US,1746631150
151,lompoc,34.6391,-120.4579,12.4,77,100,1.54,US,1746631151
152,san luis de la loma,17.2706,-100.8939,29.02,70,61,1.56,MX,1746631152
153,lamar,33.6668,-95.5836,18.27,89,100,2.06,US,1746631153
154,pacasmayo,-7.4006,-79.5714,21.59,74,79,4.1,PE,1746631155
155,huarmey,-10.0681,-78.1522,21.15,77,62,3.95,PE,1746631156
156,kerikeri,-35.2268,173.9474,16.62,93,75,1.49,NZ,1746631157
157,dzhalagash,45.0833,64.6667,29.89,11,100,3.45,KZ,1746631158
158,kanazawa,36.5944,136.6256,9.0,71,0,2.15,JP,1746631159
159,coquimbo,-29.9533,-71.3436,17.77,65,0,5.66,CL,1746631160
160,maceio,-9.6658,-35.7353,31.69,45,40,4.12,BR,1746631161
161,mbaiki,3.8678,17.9892,32.8,40,78,1.11,CF,1746631162
162,sarakhs,36.5449,61.1577,24.07,44,0,12.05,IR,1746631163
163,zyryanovsk,49.7386,84.2719,13.02,41,11,1.04,KZ,1746631164
164,san patricio,28.017,-97.5169,22.97,87,5,4.86,US,1746631165
165,jepelacio,-6.1167,-76.95,25.53,62,3,0.89,PE,1746631166
166,aasiaat,68.7098,-52.8699,-3.38,86,100,7.01,GL,1746631168
167,birzebbuga,35.8258,14.5269,24.38,53,0,2.57,MT,1746631169
168,mejit,10.2753,170.8646,26.78,84,90,9.75,MH,1746631170
169,lagoa,39.05,-27.9833,13.2,56,99,3.58,PT,1746631172
170,kodinsk,58.6881,99.1844,7.91,79,73,1.49,RU,1746631173
171,rizokarpaso,35.6,34.375,23.69,63,8,4.68,CY,1746630962
172,boa vista,2.8197,-60.6733,25.99,89,75,2.57,BR,1746630913
173,quellon,-43.1167,-73.6167,9.79,94,100,5.47,CL,1746631176
174,flat river,37.8501,-90.5168,18.36,68,100,3.09,US,1746631177
175,kapa'a,22.0752,-159.319,23.18,94,100,9.26,US,1746631178
176,sofifi,0.7349,127.576,26.97,82,100,1.23,ID,1746631179
177,choyr,46.3611,108.3611,7.84,54,100,7.75,MN,1746631180
178,portland,45.5234,-122.6762,14.04,69,75,0.89,US,1746631100
179,fort st. john,56.2499,-120.8529,7.92,75,100,4.04,CA,1746630897
180,torbat-e heydariyeh,35.274,59.2195,24.72,11,0,7.09,IR,1746631183
181,iskateley,67.6803,53.1512,0.7,100,100,3.19,RU,1746631184
182,rechka-vydrino,51.485,104.8461,5.55,61,57,1.28,RU,1746631185
183,port alfred,-33.5906,26.891,17.88,91,76,0.45,ZA,1746631186
184,christchurch,-43.5333,172.6333,10.74,80,5,1.54,NZ,1746631034
185,urengoy,65.9667,78.3667,1.09,93,100,7.34,RU,1746631189
186,rabaul,-4.1967,152.1721,26.59,77,100,1.05,PG,1746631190
187,kodiak,57.79,-152.4072,3.73,93,100,3.09,US,1746631192
188,hassi messaoud,31.6804,6.0729,36.92,15,40,2.57,DZ,1746631193
189,hilo,19.7297,-155.09,20.06,87,40,2.57,US,1746631195
190,coyhaique,-45.5752,-72.0662,4.11,100,100,2.02,CL,1746631196
191,hasaki,35.7333,140.8333,16.42,69,100,5.2,JP,1746631197
192,abbeville,50.1,1.8333,14.16,59,47,6.75,FR,1746631198
193,praia da vitoria,38.7333,-27.0667,13.14,88,40,3.69,PT,1746631199
194,polyarnyy,69.1989,33.4478,1.28,100,99,6.88,RU,1746631200
195,waspan,14.7419,-83.9717,30.45,55,100,1.58,NI,1746631201
196,west island,-12.1568,96.8225,27.99,89,88,3.6,CC,1746631202
197,remire-montjoly,4.9167,-52.2667,31.02,66,75,2.06,GF,1746631203
198,codrington,-38.2667,141.9667,11.58,59,100,8.21,AU,1746631204
199,bubaque,11.2833,-15.8333,25.59,77,7,3.45,GW,1746631205
200,sorong,-0.8833,131.25,27.34,77,96,0.76,ID,1746631206
201,dryden,49.7833,-92.7503,4.16,81,100,3.09,CA,1746631165
202,eldorado,-23.7869,-54.2836,26.23,48,6,4.58,BR,1746631208
203,bikenibeu village,1.3673,173.1241,27.98,89,40,4.63,KI,1746631209
204,superior,46.7208,-92.1041,10.54,66,20,9.26,US,1746630990
205,naze,28.3667,129.4833,15.51,75,54,1.23,JP,1746631211
206,aykhal,66.0,111.5,-5.41,90,99,2.65,RU,1746631212
207,leava,-14.3,-178.1667,28.19,77,100,12.04,WF,1746631213
208,kutum,14.2,24.6667,31.77,6,5,6.63,SD,1746631215
209,tansen,27.8673,83.5467,20.96,47,100,2.14,NP,1746631216
210,axim,4.8699,-2.2405,29.57,69,100,3.36,GH,1746631217
211,jamestown,42.097,-79.2353,15.87,80,100,4.63,US,1746631001
212,dakhla,23.6848,-15.958,22.01,68,20,6.17,EH,1746631219
213,oyama,36.3,139.8,16.02,46,100,0.79,JP,1746631220
214,malabar,-33.9667,151.25,19.84,68,62,7.2,AU,1746631221
215,hermanus,-34.4187,19.2345,19.33,77,1,2.74,ZA,1746631222
216,al majaridah,19.1236,41.9111,32.84,45,17,3.33,SA,1746631223
217,fenoarivo atsinanana,-17.3667,49.4167,22.37,95,100,4.34,MG,1746631224
218,susanville,40.4163,-120.653,10.46,55,0,0.0,US,1746631128
219,nelson bay,-32.7167,152.15,18.33,80,100,3.58,AU,1746631226
220,umluj,25.0213,37.2685,27.21,59,0,3.74,SA,1746631227
221,rabo de peixe,37.8,-25.5833,17.77,99,75,5.66,PT,1746631228
222,tateyama,34.9833,139.8667,15.48,80,32,3.96,JP,1746630974
223,illizi,26.4833,8.4667,39.21,9,35,7.09,DZ,1746631230
224,safford,32.834,-109.7076,18.51,49,0,2.57,US,1746631231
225,al bardiyah,31.7561,25.0865,28.2,34,0,6.34,LY,1746631233
226,acajutla,13.5928,-89.8275,31.8,73,12,1.47,SV,1746631234
227,padre bernardo,-15.35,-48.5,29.8,46,47,2.38,BR,1746631235
228,xiaoweizhai,26.1903,107.5125,18.66,98,100,1.48,CN,1746631236
229,naberera,-4.2,36.9333,19.11,78,95,2.59,TZ,1746631237
230,port blair,11.6667,92.75,26.02,94,75,1.03,IN,1746631238
231,sisimiut,66.9395,-53.6735,-3.73,74,100,0.5,GL,1746631239
232,susuman,62.7833,148.1667,-2.46,91,100,1.98,RU,1746631240
233,essaouira,31.5125,-9.77,22.72,68,40,3.6,MA,1746631241
234,brisas de zicatela,15.8369,-97.0419,31.29,62,20,1.54,MX,1746631242
235,alesund,62.4723,6.1549,11.85,71,75,1.54,NO,1746631079
236,awjilah,29.1081,21.2869,37.53,7,3,4.98,LY,1746631244
237,petropavlovsk-kamchatsky,53.0452,158.6483,2.33,56,0,5.0,RU,1746631245
238,nova vicosa,-17.8919,-39.3719,25.91,77,87,4.19,BR,1746631246
239,senj,44.9894,14.9058,16.56,63,39,2.23,HR,1746631247
240,avarua,-21.2078,-159.775,23.03,60,40,4.12,CK,1746631248
241,tommot,58.9564,126.2925,2.17,91,100,1.73,RU,1746631249
242,byron bay,-28.65,153.6167,15.87,92,73,2.95,AU,1746631250
243,cockburn town,21.4612,-71.1419,25.27,75,13,3.38,TC,1746631251
244,itoman,26.1247,127.6694,20.01,77,97,1.03,JP,1746631252
245,olyokminsk,60.3736,120.4264,0.56,92,21,1.93,RU,1746631253
246,new norfolk,-42.7826,147.0587,5.51,84,57,3.64,AU,1746631255
247,keflavik,64.0049,-22.5624,9.24,76,75,6.69,IS,1746631256
248,vanimo,-2.6741,141.3028,25.92,90,100,2.38,PG,1746631257
249,puerto baquerizo moreno,-0.9,-89.6,26.55,78,75,5.66,EC,1746631258
250,sabak bernam,3.7698,100.9879,28.54,88,97,1.11,MY,1746631259
251,saint-pierre,-21.3393,55.4781,24.82,88,75,9.26,RE,1746631260
252,tolanaro,-25.0319,46.9987,21.95,77,7,5.55,MG,1746631261
253,playa del ingles,27.7567,-15.5787,23.86,70,68,4.47,ES,1746631088
254,flying fish cove,-10.4217,105.6791,26.82,83,100,4.12,CX,1746631263
255,al bawiti,28.3492,28.8659,33.91,13,5,6.23,EG,1746631264
256,holualoa,19.6228,-155.9522,20.46,91,0,2.06,US,1746631094
257,larvik,59.0533,10.0352,12.25,40,0,4.63,NO,1746631266
258,chonchi,-42.6128,-73.8092,10.07,96,100,2.66,CL,1746631267
259,santa elena de uairen,4.6167,-61.1333,24.56,69,27,2.82,VE,1746631268
260,pandan,14.0453,124.1694,26.71,86,100,2.43,PH,1746631269
261,alice springs,-23.7,133.8833,13.75,58,88,3.09,AU,1746631270
262,segezha,63.7415,34.3222,4.12,55,93,2.85,RU,1746631271
263,papao,-17.75,-149.55,23.82,77,57,4.67,PF,1746631273
264,wick,58.4333,-3.0833,11.03,71,20,2.57,GB,1746631275
265,peace river,56.2501,-117.286,12.17,81,100,4.12,CA,1746631276
266,howrah,22.5892,88.3103,32.83,66,40,4.63,IN,1746631277
267,upata,8.0086,-62.3989,31.84,45,45,2.91,VE,1746631278
268,alotau,-10.3069,150.4462,23.91,94,74,0.95,PG,1746631279
269,la sarre,48.8002,-79.1996,2.13,77,100,6.71,CA,1746631280
270,pariaman,-0.619,100.12,27.18,83,68,1.16,ID,1746631281
271,marsa alam,25.0757,34.8918,29.38,35,0,6.2,EG,1746631282
272,sona,45.4388,10.8255,17.14,71,75,2.57,IT,1746631283
273,mweka,-4.85,21.5667,25.62,73,99,0.93,CD,1746631284
274,vernon,50.2581,-119.2691,13.85,45,100,4.63,CA,1746631256
275,rawson,-43.3002,-65.1023,13.16,41,0,7.72,AR,1746631288
276,saku,36.2167,138.4833,7.09,69,81,1.98,JP,1746631289
277,berezovyy,51.6667,135.7,5.56,79,93,1.6,RU,1746631290
278,hanceville,34.0607,-86.7675,17.95,92,100,2.22,US,1746631291
279,aitape,-3.1374,142.3475,25.49,90,100,1.24,PG,1746631292
280,sandnessjoen,66.0217,12.6316,6.06,87,75,6.17,NO,1746631293
281,at taj,24.2049,23.2857,33.74,6,0,2.38,LY,1746631294
282,constantia,44.1833,28.65,23.38,55,82,1.92,RO,1746631295
283,tual,-5.6667,132.75,28.09,77,90,3.7,ID,1746631266
284,macapa,0.0389,-51.0664,30.99,66,40,5.14,BR,1746631297
285,stanley,54.868,-1.6985,11.96,57,40,5.14,GB,1746631212
286,edgemere,39.2421,-76.448,21.99,59,75,3.09,US,1746631300
287,egilsstadir,65.2653,-14.3948,17.95,45,20,11.32,IS,1746631301
288,altamira,-3.2033,-52.2064,28.05,89,75,2.57,BR,1746631096
289,dudinka,69.4058,86.1778,-0.37,96,100,4.52,RU,1746631303
290,chernihiv,51.0,32.0,14.38,51,100,2.28,UA,1746631304
291,aizawl,23.7333,92.7167,21.81,77,15,0.98,IN,1746631305
292,yarmouth,41.7057,-70.2286,17.21,92,100,4.63,US,1746631306
293,great bend,38.3645,-98.7648,13.07,92,100,5.66,US,1746631092
294,minas de marcona,-15.2119,-75.1103,18.51,60,20,4.78,PE,1746631308
295,richards bay,-28.783,32.0377,23.16,63,0,3.81,ZA,1746631309
296,qo'rg'ontepa,40.734,72.7628,23.23,56,20,2.0,UZ,1746631310
297,kotlas,61.2611,46.6556,8.73,49,100,2.3,RU,1746631259
298,st. john's,47.5649,-52.7093,18.49,24,40,12.35,CA,1746631312
299,celestun,20.8667,-90.4,30.62,54,3,5.78,MX,1746631313
300,la'ie,21.6477,-157.9253,23.66,80,27,7.83,US,1746631314
301,edd,13.9297,41.6925,28.57,72,56,4.53,ER,1746631315
302,ocher,57.8904,54.7202,9.23,57,73,1.46,RU,1746631316
303,saguenay,48.4168,-71.0657,13.46,100,100,1.54,CA,1746631317
304,vilyuchinsk,52.9306,158.4028,3.15,83,5,4.09,RU,1746631318
305,eirunepe,-6.6603,-69.8736,29.05,65,84,1.12,BR,1746631320
306,kayangel,8.0823,134.7173,28.77,72,100,5.95,PW,1746631321
307,guajara mirim,-10.7828,-65.3394,28.09,65,20,2.57,BR,1746631262
308,palmerston north,-40.35,175.6167,10.55,80,20,0.45,NZ,1746631324
309,atherton,53.5237,-2.4935,17.25,58,100,1.34,GB,1746631325
310,mekhe,15.1097,-16.6218,32.06,32,75,9.2,SN,1746631326
311,ma'rib,15.4591,45.3253,33.71,19,76,5.31,YE,1746631327
312,nova sintra,14.8667,-24.7167,22.42,89,100,10.52,CV,1746631328
313,tambacounda,13.7539,-13.7586,39.03,32,48,3.09,SN,1746631329
314,arno,60.1167,18.6333,9.21,42,63,2.56,SE,1746631330
315,tazovsky,67.4667,78.7,0.93,99,100,5.8,RU,1746631331
316,al burayqah,30.4062,19.5739,34.37,19,76,6.34,LY,1746631332
317,mount isa,-20.7333,139.5,22.87,56,100,3.6,AU,1746631333
318,mahina,-17.5065,-149.489,23.87,83,0,1.03,PF,1746631334
319,margate,51.3813,1.3862,12.61,76,99,1.34,GB,1746631336
320,anatuya,-28.4606,-62.8347,26.07,73,100,2.9,AR,1746631337
321,manokwari,-0.8667,134.0833,26.31,76,98,1.09,ID,1746631338
322,sijunjung,-0.6876,100.9537,24.31,94,55,0.95,ID,1746631339
323,fortuna,40.5982,-124.1573,13.29,79,86,1.79,US,1746631341
324,kailua-kona,19.6406,-155.9956,22.53,82,0,2.06,US,1746631342
325,mount pearl,47.5166,-52.7813,18.03,27,40,12.35,CA,1746631343
326,alofi,-19.0595,-169.9187,24.94,61,100,9.77,NU,1746631344
327,aljezur,37.3191,-8.8033,16.58,61,33,5.0,PT,1746631345
328,vilyuysk,63.7553,121.6247,0.57,93,100,3.87,RU,1746631346
329,murzuq,25.9155,13.9184,40.25,9,1,1.13,LY,1746631347
330,les cayes,18.2,-73.75,28.85,65,16,3.94,HT,1746631348
331,westport,41.1415,-73.3579,21.2,66,0,4.12,US,1746631327
332,kirensk,57.7853,108.1119,4.07,84,71,1.24,RU,1746631350
333,camana,-16.6228,-72.7111,20.93,73,33,3.87,PE,1746631351
334,sogndal,61.2283,7.1003,15.21,35,75,1.03,NO,1746631352
335,undurkhaan,47.3194,110.6556,9.68,52,100,8.02,MN,1746631353
336,blenod-les-pont-a-mousson,48.8849,6.0484,15.95,50,0,5.14,FR,1746631354
337,lianyuan,27.6883,111.6642,20.78,93,35,1.18,CN,1746631355
338,lorengau,-2.0226,147.2712,24.08,90,100,0.69,PG,1746631356
339,montrose,38.4166,-108.2673,5.3,59,90,1.13,US,1746631357
340,east ballina,-28.8667,153.5833,16.47,91,92,3.08,AU,1746631358
341,persembe,41.0656,37.7714,16.68,74,100,2.32,TR,1746631360
342,ribeira grande,38.5167,-28.7,15.99,67,20,6.17,PT,1746631361
343,katsuura,35.1333,140.3,15.9,81,5,3.4,JP,1746631363
344,shiguai,40.7058,110.2856,15.62,29,99,2.55,CN,1746631364
345,qamdo,31.1667,97.2333,3.95,78,100,1.65,CN,1746631365
346,kununurra,-15.7667,128.7333,25.99,41,20,5.14,AU,1746631366
347,babu,24.4167,111.5167,24.4,96,84,1.44,CN,1746631367
348,naryn,41.4287,75.9911,17.58,19,0,1.39,KG,1746631368
349,irymple,-34.25,142.1667,10.05,70,0,5.52,AU,1746631369
350,pingzhuang,42.0372,119.2889,14.04,60,93,8.47,CN,1746631370
351,opuwo,-18.0607,13.84,26.9,26,0,5.74,NA,1746631265
352,conceicao do araguaia,-8.2578,-49.2647,31.91,53,0,2.15,BR,1746631372
353,coruripe,-10.1256,-36.1756,29.94,54,56,5.0,BR,1746631327
354,song cau,13.45,109.2167,26.72,84,95,1.12,VN,1746631374
355,sola,-13.8833,167.55,26.13,82,100,4.93,VU,1746631375
356,lakhipur,26.0299,90.3041,28.63,55,96,1.37,IN,1746631376
357,bamboo flat,11.7,92.7167,26.05,94,75,1.03,IN,1746631377
358,mount gambier,-37.8333,140.7667,12.42,52,42,4.11,AU,1746631378
359,bandarbeyla,9.4942,50.8122,29.65,78,94,4.93,SO,1746631379
360,sinop,41.7711,34.8709,16.94,86,71,4.84,TR,1746631381
361,tazacorte,28.629,-17.9293,23.54,69,40,4.12,ES,1746631382
362,benjamin hill,30.1667,-111.1,19.39,35,0,1.85,MX,1746631383
363,valparaiso,-33.0393,-71.6273,16.13,65,75,4.12,CL,1746631345
364,miles city,46.4083,-105.8406,14.54,54,0,8.75,US,1746631385
365,ribeira brava,32.65,-17.0667,20.4,93,16,3.32,PT,1746631386
366,muisne,0.6,-80.0333,26.25,84,93,2.47,EC,1746631387
367,vilani,56.5525,26.9245,7.05,48,97,5.46,LV,1746631388
368,brumunddal,60.881,10.9395,16.61,31,98,0.89,NO,1746631389
369,isnos,1.9356,-76.2406,18.02,63,16,1.75,CO,1746631390
370,swift current,50.2834,-107.8014,13.45,38,0,13.89,CA,1746631148
371,vila velha,-20.3297,-40.2925,25.97,73,75,3.09,BR,1746631392
372,newborough,52.6389,-0.2233,15.01,62,100,5.14,GB,1746631393
373,anadarko,35.0726,-98.2437,15.91,86,90,3.94,US,1746631394
374,cutral-co,-38.9469,-69.2089,12.85,42,100,2.93,AR,1746631145
375,xai-xai,-25.0519,33.6442,22.46,70,0,3.47,MZ,1746631397
376,geraldton,-28.7667,114.6,24.23,31,2,7.2,AU,1746631398
377,vysokaya gora,55.9128,49.3017,10.99,61,100,3.12,RU,1746631399
378,greenville,35.6127,-77.3663,26.01,42,0,0.0,US,1746631248
379,borzya,50.3833,116.5167,9.53,52,96,3.48,RU,1746631402
380,aldinga beach,-35.2793,138.4604,14.24,70,3,2.79,AU,1746631403
381,san francisco de la paz,14.9,-86.2,30.65,57,100,1.87,HN,1746631404
382,huilong,31.8111,121.655,14.67,83,44,5.82,CN,1746631405
383,'ali sabieh,11.1558,42.7125,32.13,40,79,2.69,DJ,1746631406
384,mahaddayweyne,2.9726,45.5347,31.4,52,100,6.74,SO,1746631407
385,al wafrah,28.6392,47.9306,31.63,14,0,8.08,KW,1746631408
386,colonia,50.9333,6.95,18.03,42,0,4.63,DE,1746631409
387,borogontsy,62.6683,131.1683,2.42,69,0,2.07,RU,1746631412
388,isabela,6.7085,121.9711,27.03,81,82,0.56,PH,1746631413
389,laguna,38.421,-121.4238,15.26,79,0,4.12,US,1746631414
390,tataouine,32.9297,10.4518,27.24,29,100,6.78,TN,1746631415
391,gualaceo,-2.9,-78.7833,18.81,59,8,1.62,EC,1746631416
392,laminusa,5.5549,120.9136,28.99,70,50,2.07,PH,1746631417
393,mammoth lakes,37.6485,-118.9721,8.52,37,0,0.0,US,1746631247
394,tvoroyri,61.5556,-6.8111,9.25,93,82,4.77,FO,1746631419
395,weno,7.4515,151.8468,28.97,79,75,2.57,FM,1746631421
396,mugia,43.1041,-9.2179,17.73,66,8,9.08,ES,1746631422
397,yuxi,24.355,102.5422,22.88,44,3,4.98,CN,1746631423
398,funafuti,-8.5243,179.1942,28.98,79,94,7.32,TV,1746631424
399,cacapava do sul,-30.5122,-53.4914,24.39,62,98,2.93,BR,1746631425
400,akjoujt,19.6969,-14.4164,37.01,20,25,5.53,MR,1746631426
401,figuig (centre),32.1089,-1.2286,31.71,11,0,8.59,MA,1746631427
402,chuguyevka,44.1653,133.8633,6.68,72,73,1.85,RU,1746631428
403,wailea,19.8858,-155.123,20.0,88,40,2.57,US,1746631429
404,palikir - national government center,6.9248,158.1611,26.08,94,100,1.79,FM,1746631430
405,puerto aysen,-45.4,-72.7,5.46,100,100,1.08,CL,1746631431
406,guerrero negro,27.9769,-114.0611,16.94,73,0,5.45,MX,1746631432
407,cooma,-36.2333,149.1333,8.54,68,1,1.25,AU,1746631433
408,talakan,50.3167,130.3667,6.92,58,9,0.93,RU,1746631434
409,coahuayana de hidalgo,18.7,-103.6583,28.72,37,48,1.07,MX,1746631435
410,camacupa,-12.0167,17.4833,22.65,57,2,1.38,AO,1746631436
411,san juan de miraflores,-12.1629,-76.9635,18.29,70,8,2.65,PE,1746631437
412,moyale,3.5167,39.0584,22.47,74,99,1.2,KE,1746631438
413,xining,36.6167,101.7667,8.84,64,97,5.08,CN,1746631439
414,eydhafushi,5.1033,73.0708,26.54,78,100,2.31,MV,1746631442
415,paracuru,-3.41,-39.0306,30.22,62,67,5.88,BR,1746631443
416,chiquimulilla,14.0858,-90.3767,30.55,71,38,2.43,GT,1746631444
417,enterprise,36.0252,-115.2419,17.62,50,40,1.54,US,1746631445
418,mil'kovo,55.6078,37.7956,14.61,34,85,3.02,RU,1746631446
419,jacksonville,30.3322,-81.6556,30.7,67,75,3.6,US,1746631286
420,kudat,6.8837,116.8477,25.96,94,20,1.03,MY,1746631448
421,suva,-18.1416,178.4415,25.71,83,75,5.14,FJ,1746631449
422,trondheim,63.4305,10.3951,10.03,65,91,1.34,NO,1746631294
423,namibe,-15.1961,12.1522,28.94,53,0,4.18,AO,1746631452
424,daru,-9.0763,143.2092,26.07,90,96,3.54,PG,1746631236
425,kuppam,12.75,78.3667,28.82,51,66,2.05,IN,1746631454
426,palmer,42.1584,-72.3287,20.29,59,40,6.17,US,1746631455
427,karratha,-20.7377,116.8463,26.91,42,1,2.97,AU,1746631456
428,touros,-5.1989,-35.4608,31.27,58,100,6.34,BR,1746631457
429,sarmiento,-45.5882,-69.07,9.34,56,100,2.98,AR,1746631458
430,revda,56.801,59.9303,9.75,58,5,1.81,RU,1746631460
431,lyozna,55.0249,30.7956,6.77,71,99,5.46,BY,1746631461
432,rongelap,11.1635,166.8941,27.18,82,100,9.34,MH,1746631263
433,ketchikan,55.3422,-131.6461,6.99,89,100,3.09,US,1746631464
434,luorong,24.4058,109.6086,24.9,91,54,1.91,CN,1746631465
435,acapulco de juarez,16.8634,-99.8901,27.9,83,75,2.57,MX,1746631456
436,santa marta,11.2408,-74.199,31.61,72,20,2.06,CO,1746631305
437,port augusta,-32.5,137.7667,13.97,73,1,5.1,AU,1746631269
438,verkhnevilyuysk,63.4453,120.3167,0.8,98,100,1.91,RU,1746631469
439,myeik,12.4333,98.6,27.5,81,100,0.88,MM,1746631470
440,svetlyy,54.675,20.1347,9.15,56,40,5.72,RU,1746631471
441,masina,-4.3836,15.3914,34.19,52,40,3.09,CD,1746631473
442,dakoro,14.5106,6.765,40.45,4,83,3.89,NE,1746631474
443,shibetsu,43.659,145.132,4.3,90,15,2.72,JP,1746631475
444,holyhead,53.3062,-4.6321,15.96,58,20,4.63,GB,1746631477
445,naga,13.6192,123.1814,25.81,92,96,1.19,PH,1746631478
446,norilsk,69.3535,88.2027,0.68,93,100,2.92,RU,1746631479
447,hadibu,12.65,54.0333,30.03,75,54,3.25,YE,1746631480
448,nampula,-15.1165,39.2666,22.97,68,40,4.12,MZ,1746631457
449,pierre,44.3683,-100.351,16.27,39,0,6.17,US,1746631482
450,queenstown,-31.8976,26.8753,22.4,27,0,5.32,ZA,1746631219
451,tofol,5.3248,163.0078,27.88,82,100,9.16,FM,1746631484
452,cill airne,52.05,-9.5167,19.03,45,0,3.6,IE,1746631485
453,vila franca do campo,37.7167,-25.4333,18.27,99,96,2.63,PT,1746631486
454,luanda,-8.8368,13.2343,30.0,70,20,6.17,AO,1746631275
455,san buenaventura,27.0833,-101.5333,25.82,50,75,0.0,MX,1746631488
456,sathupalli,17.2497,80.869,30.02,59,18,5.95,IN,1746631489
457,antalaha,-14.9003,50.2788,25.4,84,51,4.84,MG,1746631437
458,koryazhma,61.3143,47.1691,8.25,52,93,2.76,RU,1746631492
459,maragogi,-9.0122,-35.2225,29.71,55,2,4.53,BR,1746631493
460,hohhot,40.8106,111.6522,15.16,58,20,2.0,CN,1746631494
461,kulhudhuffushi,6.6221,73.07,28.79,69,100,4.04,MV,1746631264
462,oudtshoorn,-33.5907,22.2014,18.41,71,100,4.52,ZA,1746631496
463,nemuro,43.3236,145.575,5.37,94,62,4.14,JP,1746631497
464,tabou,4.423,-7.3528,29.54,66,100,3.46,CI,1746631498
465,hadsund,56.7148,10.1168,15.2,42,23,4.15,DK,1746631499
466,fougamou,-1.2154,10.5838,32.99,54,30,0.7,GA,1746631500
467,salekhard,66.53,66.6019,0.35,90,55,6.34,RU,1746631501
468,laojunmiao,39.8333,97.7333,10.33,50,83,6.53,CN,1746631502
469,san angelo,31.4638,-100.437,21.45,75,0,2.57,US,1746631503
470,aswan,24.0934,32.907,36.61,7,0,2.57,EG,1746631392
471,katsuren-haebaru,26.3369,127.8719,20.01,82,100,0.0,JP,1746631505
472,aksu,41.1231,80.2644,26.39,16,87,3.26,CN,1746631506
473,zhob,31.3411,69.4481,26.6,34,16,8.35,PK,1746631508
474,puyang chengguanzhen,35.7028,115.0053,22.63,35,88,6.85,CN,1746631509
475,yuncheng,35.0231,110.9928,22.85,33,100,1.73,CN,1746631440
476,an nuhud,12.7,28.4333,35.83,4,5,4.84,SD,1746631511
477,chandler,33.3062,-111.8412,22.16,49,75,2.06,US,1746631512
478,le port,-20.9373,55.2919,25.98,84,98,1.28,RE,1746631513
479,aberdeen,57.1437,-2.0981,14.74,63,40,4.12,GB,1746631370
480,mantua,45.1667,10.7833,17.34,89,100,0.89,IT,1746631296
481,de queen,34.0379,-94.3413,16.88,100,100,0.0,US,1746631516
482,arteaga,18.4667,-102.4167,27.92,39,13,1.27,MX,1746631517
483,strelka,58.0728,93.0344,12.06,57,94,2.73,RU,1746631518
484,guelph,43.5501,-80.2497,17.22,78,40,2.57,CA,1746631261
485,arawa,-6.2132,155.5367,25.77,92,100,1.32,PG,1746631520
486,dalbandin,28.8947,64.4101,35.54,8,26,3.73,PK,1746631521
487,micheweni,-4.9667,39.8333,26.62,73,100,7.34,TZ,1746631523
488,akureyri,65.6835,-18.0878,12.96,62,75,9.77,IS,1746631524
489,basoko,1.2391,23.616,22.67,90,100,1.78,CD,1746631525
490,bairnsdale,-37.8333,147.6167,11.14,66,39,0.89,AU,1746631526
491,begoro,6.3871,-0.3774,32.9,42,90,1.25,GH,1746631527
492,chanika,-5.4167,38.0167,20.83,90,95,1.93,TZ,1746631528
493,denison,33.7557,-96.5367,18.46,83,100,2.57,US,1746631522
494,grand falls-windsor,48.9332,-55.6649,20.84,55,100,2.68,CA,1746631530
495,fort valley,32.5538,-83.8874,18.55,94,100,1.6,US,1746631531
496,borgarnes,64.5383,-21.9206,7.09,85,100,2.95,IS,1746631532
497,nicoya,10.1483,-85.452,30.29,63,85,1.0,CR,1746631533
498,edgewater,28.9889,-80.9023,29.49,61,20,4.12,US,1746631534
499,djibo,14.1022,-1.6306,41.33,16,3,3.41,BF,1746631535
500,pingliang,35.5392,106.6861,17.22,29,100,2.31,CN,1746631430
501,palapag,12.5458,125.1147,25.18,94,78,2.25,PH,1746631537
502,bayramaly,37.6185,62.1671,27.86,31,9,7.73,TM,1746631538
503,voinjama,8.4219,-9.7478,30.32,57,83,0.26,LR,1746631539
504,hirara,24.8,125.2833,22.15,68,100,6.69,JP,1746631540
505,yung shue wan,22.2333,114.1167,26.49,87,100,8.93,HK,1746631542
506,hereford,52.0568,-2.7148,17.34,64,98,3.79,GB,1746631543
507,niquero,20.0431,-77.5828,28.42,66,5,3.82,CU,1746631544
508,honmachi,32.5,130.6,15.27,76,0,0.9,JP,1746631545
509,dien bien phu,21.3833,103.0167,24.89,69,2,1.23,VN,1746631546
510,taghazout,30.5426,-9.7112,20.72,64,5,4.62,MA,1746631290
511,kotabumi,-4.8333,104.9,25.49,89,100,2.08,ID,1746631549
512,el calafate,-50.3408,-72.2768,3.89,73,61,0.77,AR,1746631551
513,bodaybo,57.8506,114.1933,-0.93,94,66,0.61,RU,1746631552
514,chadan,51.2833,91.5833,10.93,38,66,2.95,RU,1746631553
515,san rafael,-34.6177,-68.3301,12.8,39,100,3.84,AR,1746631458
516,stevens point,44.5236,-89.5746,14.97,69,100,4.63,US,1746631542
517,mombetsu,44.3525,143.3525,5.08,83,100,2.03,JP,1746631557
518,jaisalmer,26.9147,70.9181,34.85,26,52,4.25,IN,1746631558
519,punta gorda,26.9298,-82.0454,29.03,73,40,4.12,US,1746631312
520,rokupr,8.6717,-12.395,35.96,43,67,1.12,SL,1746631561
521,mingyue,43.1069,128.9217,8.8,66,93,0.99,CN,1746631562
522,salinopolis,-0.6136,-47.3561,28.1,81,15,5.92,BR,1746631563
523,saint-joseph,-21.3667,55.6167,24.21,88,98,7.64,RE,1746631564
524,kisangani,0.5167,25.2,21.86,97,100,0.35,CD,1746631558
525,hampton bays,40.869,-72.5176,17.14,71,100,3.95,US,1746631304
526,zavitinsk,50.1167,129.45,8.07,52,52,1.25,RU,1746631567
527,gebeit,21.0667,36.3167,33.47,8,0,3.5,SD,1746631568
528,kiboga,0.9161,31.7742,18.65,96,100,1.43,UG,1746631569
529,port saint john's,-31.6229,29.5448,22.23,76,0,2.45,ZA,1746631570
530,ocean shores,46.9737,-124.1563,11.92,94,100,6.17,US,1746631571
531,coxen hole,16.3244,-86.5366,30.6,74,0,7.2,HN,1746631573
532,novyy urengoy,66.0833,76.6333,0.93,94,100,8.84,RU,1746631574
533,chatham,51.3789,0.5279,15.06,62,99,4.02,GB,1746631575
534,basco,20.4487,121.9702,27.56,82,66,4.85,PH,1746631576
535,alpena,45.0617,-83.4327,10.18,81,0,6.17,US,1746631577
536,puerto armuelles,8.2833,-82.8667,26.16,79,100,2.24,PA,1746631578
537,ruteng,-8.6136,120.4721,17.76,95,100,0.28,ID,1746631579
538,gereida,11.2811,25.1414,37.95,5,62,4.23,SD,1746631580
539,luderitz,-26.6481,15.1594,22.83,52,1,4.46,NA,1746631581
540,saynshand,44.8824,110.1163,10.93,50,71,6.51,MN,1746631582
541,brookings,44.3114,-96.7984,17.25,51,0,6.17,US,1746631312
542,serhetabat,35.2799,62.3438,24.85,40,0,4.68,TM,1746631584
543,camabatela,-8.1881,15.375,24.27,62,93,2.59,AO,1746631585
544,igarka,67.4667,86.5833,2.65,94,100,7.71,RU,1746631586
545,isangel,-19.55,169.2667,25.72,85,100,5.14,VU,1746631368
546,kabalo,-6.05,26.9167,26.5,73,50,2.06,CD,1746631588
547,argungu,12.7433,4.5269,41.5,8,98,2.86,NG,1746631469
548,crystal city,28.6775,-99.8281,24.06,64,40,1.54,US,1746631592
549,neyshabur,36.2133,58.7958,22.86,34,34,2.02,IR,1746631593
550,kinablangan,7.6947,126.5503,24.23,88,100,2.14,PH,1746631594
551,island harbour,50.724,-1.2758,17.8,57,100,0.89,GB,1746631595
552,ixtapa,20.7,-105.2,26.24,73,0,1.54,MX,1746631596
553,spanish wells,26.323,-81.7957,30.57,64,0,4.63,US,1746631597
554,ioannina,39.6675,20.8508,23.86,33,20,5.14,GR,1746631325
555,hastings,50.8552,0.5729,14.99,70,100,7.22,GB,1746631599
556,rio preto da eva,-2.6994,-59.6997,28.36,79,24,1.32,BR,1746631600
557,mthatha,-31.5889,28.7844,24.31,64,0,3.6,ZA,1746631602
558,vyazemskiy,47.5378,134.7525,8.13,80,100,1.12,RU,1746631603
559,staraya kulatka,52.7167,47.6167,12.31,61,100,1.88,RU,1746631604
560,reggane,26.7158,0.1714,37.75,16,95,8.89,DZ,1746631605
561,kendari,-3.945,122.4989,24.94,94,98,0.52,ID,1746631606
562,cukurca,37.2481,43.6136,17.89,52,10,1.47,TR,1746631607
563,caleta de carquin,-11.0925,-77.6267,20.55,79,14,3.05,PE,1746631609
564,zouerate,22.7187,-12.4521,33.99,19,75,4.22,MR,1746631610
565,long xuyen,10.3833,105.4167,29.13,85,91,3.73,VN,1746631611
566,charters towers,-20.1,146.2667,18.85,88,98,3.22,AU,1746631612
567,pago pago,-14.2781,-170.7025,27.33,80,98,13.11,AS,1746631613
568,ghat,24.9647,10.1728,39.66,7,17,6.33,LY,1746631614
569,guacimo,10.2104,-83.6807,30.16,64,57,1.3,CR,1746631615
570,labytnangi,66.6572,66.4183,0.58,86,54,6.3,RU,1746631616
571,tarawa,1.419,172.984,28.05,89,40,4.63,KI,1746631514
